     2.11           OBSERVATION DATA    G (GPS)             RINEX VERSION / TYPE
teqc  2007Jun25                         20090422 20:14:40UTCPGM / RUN BY / DATE
Linux 2.4.20-8|Pentium IV|gcc -static|Linux|486/DX+         COMMENT
BIT 2 OF LLI FLAGS DATA COLLECTED UNDER A/S CONDITION       COMMENT
42800940                                                    MARKER NAME
RVBM                                                        MARKER NUMBER
Max_Kaufman         Geophysical Inst/UAF                    OBSERVER / AGENCY
0220274280          TRIMBLE 5700        NP 1.20 / SP 0.00   REC # / TYPE / VERS
00000000            TRM41249.00                             ANT # / TYPE
 -2803494.4749 -1438103.1325  5528829.1912                  APPROX POSITION XYZ
        0.0000        0.0000        0.0000                  ANTENNA: DELTA H/E/N
     1     1                                                WAVELENGTH FACT L1/2
     5    L1    L2    C1    P2    P1                        # / TYPES OF OBSERV
 SNR is mapped to RINEX snr flag value [0-9]                COMMENT
  L1 & L2: min(max(int(snr_dBHz/6), 0), 9)                  COMMENT
  2009     4     4     0     0   30.0000000     GPS         TIME OF FIRST OBS
                                                            END OF HEADER
 09  4  4  0  0 30.0000000  0 10G20G31G 2G23G30G25G32G 4G13G17
 -26883424.63758 -20937268.28356  20592868.9614   20592863.8204
 -14617856.89857 -11380288.50955  22809951.1884   22809945.6604
  -4310198.75056  -3347830.64054  24439993.5394   24439987.8914
 -27299003.40258 -21250904.91757  20395075.4844   20395068.5274
  -4717421.00456  -3661933.72353  24315637.2194   24315632.1954
  -2887364.74256  -2238413.42953  24369987.8524   24369984.8794
 -17711936.53957 -13781890.25855  22254228.8754   22254223.9884
 -17959639.01258 -13972275.63755  21846677.2664   21846673.1334
 -16950950.94957 -13186873.91955  22070867.6644   22070862.9454
  -4412897.98856  -3431112.17553  25034811.5394   25034808.8714
 09  4  4  0  1  0.0000000  0 10G20G31G 2G23G30G25G32G 4G13G17
 -26840528.30948 -20903842.57346  20601031.8134   20601026.4924
 -14558768.12148 -11334245.30645  22821195.3054   22821190.2384
  -4421012.97346  -3434179.34144  24418906.4144   24418900.1214
 -27347884.05548 -21288993.71347  20385773.9534   20385766.5664
  -4674171.07446  -3628232.51843  24323866.3364   24323862.9614
  -3009498.16446  -2333582.26743  24346746.7114   24346743.7154
 -17640011.27747 -13725844.61345  22267915.4614   22267911.1294
 -18004109.50448 -14006927.96646  21838215.0784   21838210.5554
 -17053382.38747 -13266690.58345  22051375.2114   22051370.8914
  -4322119.29346  -3360375.67243  25052086.2814   25052083.8984
 09  4  4  0  1 30.0000000  0 10G20G31G 2G23G30G25G32G 4G13G17
 -26797166.95748 -20870054.50646  20609283.3984   20609277.6684
 -14499224.71148 -11287847.86345  22832526.4224   22832520.9344
  -4531568.61746  -3520326.54844  24397868.7034   24397862.6954
 -27396287.47748 -21326710.65247  20376563.1724   20376555.8364
  -4630362.67246  -3594096.17143  24332202.4694   24332199.0784
  -3131536.41046  -2428676.88343  24323522.9454   24323520.1054
 -17567830.02047 -13669599.49645  22281651.1484   22281647.0394
 -18048002.04748 -14041129.94645  21829862.5634   21829858.2894
 -17155511.12547 -13346271.39045  22031941.0634   22031936.2424
  -4231208.43446  -3289536.07743  25069385.9224   25069382.8484
 09  4  4  0  2  0.0000000  0  9G20G31G 2G23G30G25G32G 4G13
 -26753341.50048 -20835904.80947  20617623.0004   20617617.9024
 -14439228.80948 -11241097.81245  22843942.8444   22843937.3554
  -4641863.16047  -3606270.35844  24376879.9774   24376874.2304
 -27444212.92648 -21364055.14647  20367443.1804   20367435.8284
  -4585997.55546  -3559525.88643  24340644.3674   24340641.3164
  -3253477.04346  -2523695.41343  24300319.0084   24300315.4384
 -17495393.61347 -13613155.56345  22295435.1414   22295431.3014
 -18091314.77348 -14074880.12345  21821620.5164   21821615.8754
 -17257335.27747 -13425614.84845  22012564.0474   22012559.8444
 09  4  4  0  2 30.0000000  0  9G20G31G 2G23G30G25G32G 4G13
 -26709050.55948 -20801392.39346  20626051.2894   20626046.1174
 -14378780.24648 -11193995.04945  22855445.7034   22855440.4734
  -4751891.17247  -3692006.40244  24355941.7194   24355935.9574
 -27491656.80548 -21401024.39147  20358414.7664   20358407.6254
  -4541075.38346  -3524521.65743  24349192.4304   24349188.8484
  -3375315.25446  -2618634.15343  24277133.1564   24277130.3094
 -17422700.83247 -13556511.84945  22309268.3524   22309264.4184
 -18134044.31647 -14108175.86746  21813489.2974   21813484.9844
 -17358850.81247 -13504717.82045  21993246.5944   21993241.9694
 09  4  4  0  3  0.0000000  0  9G20G31G 2G23G30G25G32G 4G13
 -26664285.99648 -20766510.91746  20634569.7274   20634564.5084
 -14317872.29348 -11146534.33145  22867036.0864   22867030.6684
  -4861640.91447  -3777525.67243  24335057.3754   24335051.0124
 -27538610.12548 -21437611.38847  20349480.0004   20349472.2664
  -4495588.97746  -3489077.72143  24357848.7734   24357845.3204
  -3497039.37146  -2713483.99643  24253970.7194   24253966.8404
 -17349743.57447 -13499662.04945  22323151.8204   22323147.3324
 -18176180.10247 -14141008.93846  21805471.0944   21805466.9804
 -17460047.09447 -13583572.03845  21973989.0864   21973984.7734
 09  4  4  0  3 30.0000000  0  9G20G31G 2G23G30G25G32G 4G13
 -26619045.98048 -20731258.95146  20643178.5394   20643173.0784
 -14256503.97347 -11098714.86445  22878714.3834   22878708.9774
  -4971106.31647  -3862823.38843  24314227.3524   24314220.3484
 -27585068.79748 -21473812.93747  20340638.9924   20340631.5944
  -4449537.76246  -3453193.67343  24366612.0554   24366608.9224
  -3618644.39546  -2808240.99443  24230829.5394   24230826.3634
 -17276520.23847 -13442604.92245  22337085.6094   22337081.4064
 -18217718.30148 -14173376.36846  21797566.6724   21797562.4844
 -17560919.41447 -13662173.81145  21954793.9304   21954789.3794
 09  4  4  0  4  0.0000000  0  9G20G31G 2G23G30G25G32G 4G13
 -26573337.61348 -20695642.04046  20651876.7194   20651871.3634
 -14194683.71547 -11050543.26245  22890478.1334   22890473.0664
  -5080290.80147  -3947902.19943  24293450.0314   24293443.6954
 -27631037.81248 -21509632.93847  20331891.5084   20331884.4104
  -4402929.18447  -3416875.36243  24375481.8914   24375477.7114
  -3740133.43046  -2902907.70243  24207711.1954   24207707.3874
 -17203037.74647 -13385345.86345  22351069.5234   22351064.6604
 -18258662.94148 -14205281.29246  21789774.9924   21789770.7034
 -17661472.04348 -13740526.46845  21935659.4774   21935655.1024
 09  4  4  0  4 30.0000000  0  9G20G31G 2G23G30G25G32G 4G13
 -26527163.16848 -20659661.95946  20660663.2664   20660658.0784
 -14132415.11748 -11002022.29245  22902327.6414   22902322.6524
  -5189193.18047  -4032761.14744  24272725.9384   24272720.0474
 -27676518.07048 -21545072.09347  20323236.6954   20323229.7734
  -4355766.69546  -3380125.36643  24384455.5864   24384452.9184
  -3861505.73847  -2997483.33243  24184614.2194   24184610.7854
 -17129298.68447 -13327886.87445  22365100.9454   22365097.0084
 -18299014.74648 -14236724.24946  21782096.2344   21782092.0084
 -17761704.58248 -13818629.71045  21916585.8204   21916581.3364
 09  4  4  0  5  0.0000000  0  9G20G31G 2G23G30G25G32G 4G13
 -26480526.11748 -20623321.40546  20669537.9064   20669532.8834
 -14069703.36747 -10953156.00545  22914261.6644   22914256.1604
  -5297812.79247  -4117399.76244  24252057.0084   24252050.1024
 -27721511.31648 -21580131.75247  20314674.9064   20314667.8054
  -4308054.59846  -3342947.13143  24393536.1024   24393531.9304
  -3982761.38347  -3091968.17643  24161540.2974   24161536.2504
 -17055306.53147 -13270230.68945  22379181.2424   22379177.3134
 -18338774.72748 -14267706.05046  21774530.3204   21774526.1174
 -17861617.94148 -13896484.23445  21897572.7344   21897568.3484
 09  4  4  0  5 30.0000000  0  9G20G31G 2G23G30G25G32G 4G13
 -26433427.43748 -20586621.13546  20678500.6804   20678495.2704
 -14006549.65647 -10903945.34345  22926279.1414   22926273.8284
  -5406146.78947  -4201815.89944  24231441.4384   24231434.6174
 -27766016.32048 -21614810.96347  20306206.0704   20306198.5004
  -4259794.98046  -3305342.28043  24402720.0784   24402715.2544
  -4103897.41847  -3186359.73743  24138488.9144   24138484.8484
 -16981061.98847 -13212377.79345  22393309.4694   22393305.7544
 -18377941.30148 -14298225.45846  21767077.0314   21767072.6764
 -17961210.04747 -13974088.42745  21878620.9454   21878616.5784
 09  4  4  0  6  0.0000000  0  9G20G31G 2G23G30G25G32G 4G13
 -26385868.16448 -20549561.97746  20687550.7034   20687545.7974
 -13942956.77747 -10854392.45745  22938380.4454   22938375.3284
  -5514192.36347  -4286007.17344  24210880.4064   24210874.2774
 -27810032.73848 -21649109.45947  20297829.8754   20297822.6684
  -4210990.13746  -3267312.49443  24412006.1884   24412003.1374
  -4224911.64147  -3280656.43244  24115460.1414   24115456.6884
 -16906566.28947 -13154329.22345  22407485.9534   22407481.3834
 -18416513.46947 -14328281.67246  21759736.7814   21759732.8324
 -18060479.21147 -14051440.97945  21859730.7114   21859725.9144
 09  4  4  0  6 30.0000000  0  9G20G31G 2G23G30G25G32G 4G13
 -26337851.27348 -20512146.21846  20696688.2034   20696682.8054
 -13878928.87148 -10804500.60845  22950564.3984   22950559.5164
  -5621948.71546  -4369973.17443  24190375.3984   24190369.4774
 -27853561.22348 -21683027.75447  20289546.6804   20289539.3404
  -4161643.87946  -3228860.92343  24421397.0784   24421392.8284
  -4345803.52347  -3374857.75044  24092455.3834   24092451.6094
 -16831822.61747 -13096087.40945  22421708.7894   22421704.7154
 -18454491.94547 -14357875.29846  21752509.8594   21752505.9494
 -18159425.62547 -14128542.03245  21840901.6644   21840897.4964
 09  4  4  0  7  0.0000000  0  9G20G31G 2G23G30G25G32G 4G13
 -26289379.66048 -20474376.13146  20705911.9844   20705906.7934
 -13814469.53147 -10754272.56045  22962830.8134   22962825.7424
  -5729414.55947  -4453712.78444  24169925.2274   24169919.4224
 -27896603.55548 -21716567.22747  20281356.0784   20281348.7894
  -4111759.88345  -3189990.24643  24430889.7034   24430885.5904
  -4466572.35247  -3468963.22944  24069473.1804   24069469.8954
 -16756833.69147 -13037654.50245  22435978.7504   22435974.8524
 -18491877.10247 -14387006.58546  21745395.9384   21745391.5664
 -18258049.46147 -14205391.70745  21822134.3364   21822130.1414
 09  4  4  0  7 30.0000000  0  9G20G31G 2G23G30G25G32G 4G13
 -26240452.71548 -20436251.24646  20715222.3134   20715217.3634
 -13749579.93047 -10703709.26245  22975178.9614   22975173.9414
  -5836585.53946  -4537222.58343  24149531.5474   24149525.6454
 -27939157.34848 -21749726.01147  20273258.2034   20273250.8714
  -4061339.03946  -3150701.33243  24440483.3834   24440480.6214
  -4587214.06647  -3562969.58343  24046516.0084   24046512.3594
 -16681598.99647 -12979030.09245  22450295.7114   22450291.4494
 -18528666.39548 -14415673.56746  21738395.1414   21738390.9144
 -18356347.78147 -14281987.76545  21803428.6484   21803424.1134
 09  4  4  0  8  0.0000000  0  9G20G31G 2G23G30G25G32G 4G13
 -26191074.74647 -20397774.90846  20724618.8054   20724613.4264
 -13684265.48847 -10652814.90445  22987608.0704   22987603.1294
  -5943462.19147  -4620503.02844  24129193.1334   24129187.4024
 -27981224.66048 -21782505.73247  20265253.0234   20265245.6804
  -4010386.53546  -3110998.06843  24450179.6254   24450176.9884
  -4707729.35547  -3656877.48643  24023582.9144   24023579.3754
 -16606122.73047 -12920217.42545  22464657.6724   22464654.0314
 -18564861.73048 -14443877.71546  21731507.3054   21731503.0044
 -18454321.73847 -14358331.06345  21784784.8594   21784780.2544
 09  4  4  0  8 30.0000000  0  9G20G31G 2G23G30G25G32G 4G13
 -26141248.53947 -20358949.30346  20734100.4614   20734095.2704
 -13618530.18748 -10601592.61345  23000116.6644   23000112.0514
  -6050043.24246  -4703553.16344  24108911.1954   24108905.2234
 -28022806.73848 -21814907.34347  20257339.9534   20257332.9534
  -3958906.12945  -3070883.56143  24459976.5864   24459973.6684
  -4828117.45347  -3750686.25743  24000673.4064   24000670.2734
 -16530407.73047 -12861218.74945  22479066.0394   22479062.4344
 -18600463.66848 -14471619.49046  21724732.8594   21724728.2624
 -18551971.07847 -14434421.41045  21766202.5084   21766197.7544
 09  4  4  0  9  0.0000000  0  9G20G31G 2G23G30G25G32G 4G13
 -26090985.60547 -20319783.38346  20743665.3364   20743659.9884
 -13552386.32447 -10550051.95845  23012703.7734   23012698.5394
  -6156336.44546  -4786379.00344  24088684.6334   24088678.4494
 -28063913.38348 -21846938.48147  20249517.8914   20249510.9224
  -3906910.53946  -3030367.50743  24469870.7894   24469867.4184
  -4948386.30947  -3844402.14443  23977786.8284   23977783.5514
 -16454465.46147 -12802042.97645  22493517.7974   22493513.5514
 -18635481.57448 -14498906.18046  21718068.8284   21718064.5164
 -18649304.89148 -14510265.89545  21747680.9844   21747676.2274
 09  4  4  0  9 30.0000000  0  9G20G31G 2G23G30G25G32G 4G13
 -26040287.86747 -20280278.67146  20753312.7114   20753307.4734
 -13485837.36747 -10498195.65545  23025367.8364   23025362.6094
  -6262339.44147  -4868978.73144  24068513.1644   24068506.5234
 -28104544.53548 -21878599.12547  20241785.9694   20241778.8954
  -3854402.37945  -2989452.13343  24479862.3134   24479859.7194
  -5068534.19147  -3938023.76344  23954923.6414   23954919.7344
 -16378297.63747 -12742691.45645  22508011.8594   22508007.8954
 -18669915.16048 -14525737.52746  21711516.3054   21711512.1724
 -18746322.11347 -14585863.69045  21729219.2194   21729214.2274
 09  4  4  0 10  0.0000000  0  9G20G31G 2G23G30G25G32G 4G13
 -25989156.07447 -20240435.73046  20763042.7894   20763037.7194
 -13418885.28147 -10446025.21745  23038108.3284   23038103.1134
  -6368049.35246  -4951350.05344  24048396.8204   24048391.5164
 -28144699.45348 -21909888.66647  20234144.7114   20234138.1724
  -3801383.69546  -2948138.85543  24489951.4454   24489948.9064
  -5188558.40647  -4031549.05343  23932083.3054   23932080.1844
 -16301905.28947 -12683164.97945  22522548.9694   22522545.1294
 -18703762.92248 -14552112.41446  21705075.5474   21705071.1454
 -18843020.62948 -14661213.14545  21710818.0234   21710813.1214
 09  4  4  0 10 30.0000000  0  9G20G31G 2G23G30G25G32G 4G13
 -25937587.53947 -20200252.46746  20772855.8754   20772850.7464
 -13351528.30947 -10393539.27645  23050925.1174   23050920.4614
  -6473459.33247  -5033487.63144  24028338.1724   24028332.2304
 -28184373.55548 -21940803.55047  20226595.1174   20226587.9384
  -3747853.10246  -2906426.72543  24500139.0234   24500134.9064
  -5308452.74247  -4124973.15843  23909268.8364   23909264.2234
 -16225285.60947 -12623461.36045  22537128.5554   22537124.9024
 -18737020.03948 -14578027.04846  21698746.3834   21698742.5904
 -18939395.28947 -14736310.26646  21692478.4224   21692473.7344
 09  4  4  0 11  0.0000000  0  9G20G31G 2G23G30G25G32G 4G13
 -25885582.67247 -20159729.19946  20782752.0704   20782747.0554
 -13283768.29747 -10340739.27745  23063819.7894   23063814.6524
  -6578566.03147  -5115388.91644  24008337.2424   24008331.0274
 -28223565.71148 -21971342.88847  20219137.1804   20219130.1294
  -3693812.19546  -2864316.87643  24510423.8524   24510418.8444
  -5428213.89547  -4218293.49443  23886479.0004   23886475.0514
 -16148438.99247 -12563580.90345  22551752.8984   22551748.7274
 -18769684.98448 -14603480.25846  21692530.7894   21692526.5704
 -19035443.52747 -14811153.01245  21674201.2114   21674196.2624
 09  4  4  0 11 30.0000000  0  9G20G31G 2G23G30G25G32G 4G13
 -25833139.67647 -20118864.53246  20792731.6334   20792726.3284
 -13215604.55547 -10287624.68445  23076790.4924   23076785.5594
  -6683363.26247  -5197049.05544  23988395.0314   23988389.0234
 -28262271.98848 -22001503.61647  20211771.4144   20211764.3634
  -3639259.99246  -2821808.79143  24520803.9844   24520799.8674
  -5547836.43447  -4311505.82343  23863715.2114   23863711.2034
 -16071363.45747 -12503522.08545  22566419.2504   22566415.3914
 -18801753.39148 -14628468.61746  21686428.3204   21686424.1024
 -19131160.61348 -14885737.71946  21655986.5634   21655982.0744
 09  4  4  0 12  0.0000000  0  9G20G31G 2G23G30G25G32G 4G13
 -25780261.34047 -20077660.65146  20802793.9534   20802789.1684
 -13147040.85547 -10234198.44545  23089838.1094   23089833.0314
  -6787850.20747  -5278467.43544  23968511.1094   23968505.4184
 -28300493.57848 -22031286.66047  20204498.1724   20204491.1644
  -3584200.34846  -2778905.12843  24531280.7664   24531277.6254
  -5667319.56646  -4404609.49443  23840978.4534   23840974.0824
 -15994061.83647 -12443287.06945  22581129.1724   22581125.4844
 -18833226.34048 -14652992.99346  21680439.2194   21680435.2384
 -19226546.74647 -14960064.54646  21637835.3834   21637830.8244
 09  4  4  0 12 30.0000000  0  9G20G31G 2G23G30G25G32G 4G13
 -25726948.42648 -20036118.13546  20812939.1414   20812933.9964
 -13078079.28147 -10180462.15945  23102961.7584   23102956.0864
  -6892023.32447  -5359641.25144  23948688.1414   23948681.8324
 -28338229.50848 -22060691.27947  20197317.3204   20197309.9884
  -3528635.29346  -2735607.73143  24541855.0164   24541851.2504
  -5786660.37547  -4497602.33943  23818268.5634   23818264.5744
 -15916534.73047 -12382876.37345  22595882.4224   22595878.5234
 -18864102.14548 -14677052.06746  21674563.6564   21674559.3874
 -19321599.87547 -15034131.88946  21619747.2664   21619742.4844
 09  4  4  0 13  0.0000000  0  9G20G31G 2G23G30G25G32G 4G13
 -25673198.23047 -19994234.88246  20823167.4304   20823162.4534
 -13008718.33647 -10126414.69745  23116160.5164   23116155.1294
  -6995876.23047  -5440565.57444  23928925.5234   23928919.4384
 -28375475.46548 -22089714.08947  20190229.6334   20190222.4224
  -3472562.76246  -2691914.85143  24552524.8754   24552521.1564
  -5905852.50046  -4590479.26944  23795587.0164   23795582.7384
 -15838779.33647 -12322287.77845  22610678.6024   22610674.8204
 -18894376.07848 -14700642.14346  21668802.6724   21668798.4144
 -19416313.95747 -15107935.03346  21601723.5474   21601719.0634
 09  4  4  0 13 30.0000000  0  9G20G31G 2G23G30G25G32G 4G13
 -25619013.37947 -19952012.93346  20833478.3834   20833473.3404
 -12938961.80147 -10072058.96745  23129434.5554   23129429.5044
  -7099407.53547  -5521239.27945  23909223.7974   23909218.2304
 -28412232.30948 -22118355.79047  20183234.8834   20183227.8324
  -3415986.51646  -2647829.50243  24563291.3444   24563287.0554
  -6024894.96147  -4683239.61944  23772934.0004   23772929.7194
 -15760798.26647 -12261523.33645  22625518.2424   22625514.1484
 -18924048.62948 -14723763.61746  21663156.1334   21663152.3444
 -19510689.02047 -15181474.01946  21583764.6644   21583760.2034
 09  4  4  0 14  0.0000000  0  9G20G31G 2G23G30G25G32G 4G13
 -25564395.96147 -19909453.91646  20843871.9384   20843866.9574
 -12868812.92247 -10017397.51645  23142783.6954   23142778.3634
  -7202615.25447  -5601660.85345  23889584.2584   23889578.7424
 -28448500.25848 -22146616.51447  20176333.2894   20176326.2814
  -3358910.21946  -2603354.51743  24574152.9614   24574148.7894
  -6143786.23447  -4775882.14144  23750309.5944   23750305.5434
 -15682593.56247 -12200584.61945  22640399.2894   22640396.3164
 -18953120.13748 -14746416.74346  21657624.1484   21657620.0824
 -19604724.61747 -15254748.47646  21565870.1724   21565865.3954
 09  4  4  0 14 30.0000000  0  9G20G31G 2G23G30G25G32G 4G13
 -25509345.91047 -19866557.77946  20854347.7344   20854342.9384
 -12798272.63347  -9962431.07545  23156206.9144   23156201.6914
  -7305495.19147  -5681826.99245  23870006.5084   23870000.7074
 -28484277.42648 -22174494.83347  20169525.2424   20169518.4184
  -3301334.84046  -2558490.64443  24585109.6254   24585104.9614
  -6262522.64846  -4868403.96344  23727715.3364   23727711.6134
 -15604165.11347 -12139471.56245  22655325.1564   22655320.8714
 -18981588.14548 -14768599.60046  21652206.8984   21652202.8054
 -19698417.87947 -15327756.16746  21548040.8204   21548036.1294
 09  4  4  0 15  0.0000000  0  9G20G31G 2G23G30G25G32G 4G13
 -25453865.34047 -19823326.18246  20864905.3524   20864900.1524
 -12727344.09447  -9907162.09445  23169702.8834   23169699.1054
  -7408045.09847  -5761735.98545  23850492.4454   23850486.1134
 -28519564.32048 -22201991.11247  20162810.4614   20162803.2194
  -3243263.42246  -2513240.12843  24596159.3674   24596155.4774
  -6381102.46546  -4960803.77444  23705149.7664   23705146.3874
 -15525514.66447 -12078185.54245  22670291.5234   22670287.3794
 -19009452.67648 -14790312.22446  21646904.3834   21646900.4964
 -19791767.71147 -15400496.29746  21530277.0944   21530272.5004
 09  4  4  0 15 30.0000000  0  9G20G31G 2G23G30G25G32G 4G13
 -25397953.53547 -19779758.55146  20875544.5784   20875539.7584
 -12656027.91847  -9851591.07445  23183274.6954   23183270.2894
  -7510260.66447  -5841384.45645  23831041.7504   23831035.4494
 -28554358.44948 -22229103.41747  20156189.1954   20156182.0704
  -3184696.71146  -2467603.84743  24607304.4384   24607300.5664
  -6499521.48047  -5053078.26844  23682615.5084   23682611.4184
 -15446641.61347 -12016726.04545  22685301.3754   22685296.0044
 -19036711.10548 -14811552.56146  21641717.3444   21641713.5984
 -19884770.68747 -15472966.11346  21512578.9454   21512574.4064
 09  4  4  0 16  0.0000000  0  9G20G31G 2G23G30G25G32G 4G13
 -25341615.23447 -19735858.58846  20886265.9144   20886260.6174
 -12584329.80547  -9795722.44045  23196918.0784   23196913.9654
  -7612142.53947  -5920772.89144  23811653.5944   23811647.6764
 -28588662.91048 -22255834.16247  20149661.1884   20149653.9654
  -3125640.31246  -2421585.85843  24618542.0004   24618539.1414
  -6617780.49246  -5145228.09144  23660111.1174   23660107.4734
 -15367550.43747 -11955096.59045  22700350.2114   22700346.9694
 -19063365.92648 -14832322.56746  21636645.3674   21636640.9414
 -19977428.71147 -15545167.15246  21494947.0784   21494942.1024
 09  4  4  0 16 30.0000000  0  9G20G31G 2G23G30G25G32G 4G13
 -25284850.98047 -19691626.71346  20897067.8134   20897062.5904
 -12512251.57047  -9739557.59545  23210634.2274   23210630.0704
  -7713687.05147  -5999898.46244  23792330.4924   23792324.6564
 -28622476.38748 -22282182.31847  20143226.9144   20143219.8284
  -3066095.98046  -2375187.74743  24629872.9774   24629869.4344
  -6735876.49247  -5237250.87744  23637638.6334   23637634.5124
 -15288241.57047 -11893297.50545  22715443.2814   22715438.6094
 -19089415.62948 -14852621.03246  21631688.0864   21631684.1564
 -20069739.37547 -15617097.52046  21477380.9454   21477375.7934
 09  4  4  0 17  0.0000000  0  9G20G31G 2G23G30G25G32G 4G13
 -25227658.55548 -19647061.19146  20907951.0704   20907946.0164
 -12439792.30947  -9683095.86645  23224422.7894   23224418.5084
  -7814887.97347  -6078756.28244  23773072.9304   23773066.2584
 -28655794.66048 -22308144.60447  20136886.8754   20136879.5354
  -3006062.73446  -2328408.56743  24641296.7584   24641293.4304
  -6853803.59847  -5329142.07144  23615197.7504   23615193.8244
 -15208712.74247 -11831327.02945  22730577.1954   22730572.8674
 -19114856.21148 -14872444.87146  21626846.7424   21626843.0084
 -20161697.72748 -15688753.36046  21459881.5474   21459877.0124
 09  4  4  0 17 30.0000000  0  9G20G31G 2G23G30G25G32G 4G13
 -25170042.08648 -19602165.25146  20918914.9454   20918909.4144
 -12366957.20347  -9626341.26245  23238283.1644   23238278.3954
  -7915745.11347  -6157346.23944  23753880.0084   23753873.7344
 -28688620.50448 -22333723.18647  20130639.9304   20130632.9304
  -2945546.03546  -2281252.75943  24652813.2114   24652809.1374
  -6971562.16447  -5420901.89844  23592789.7584   23592784.9574
 -15128967.93447 -11769188.22845  22745751.1954   22745747.8594
 -19139689.75848 -14891795.67646  21622121.1414   21622117.4924
 -20253304.89847 -15760135.54946  21442449.2194   21442444.3914
 09  4  4  0 18  0.0000000  0  9G20G31G 2G23G30G25G32G 4G13
 -25112003.32848 -19556940.24746  20929959.2894   20929954.4844
 -12293748.97347  -9569295.89745  23252214.4844   23252209.5634
  -8016256.66047  -6235666.89644  23734752.9844   23734746.9384
 -28720954.04348 -22358918.14747  20124487.4924   20124479.8674
  -2884548.60246  -2233722.29043  24664420.4774   24664416.4184
  -7089150.32447  -5512528.94244  23570412.6024   23570408.5784
 -15049008.74247 -11706882.40445  22760966.9064   22760963.1174
 -19163916.08248 -14910673.33746  21617511.2974   21617507.0354
 -20344559.79747 -15831243.24846  21425083.9694   21425079.4224
 09  4  4  0 18 30.0000000  0  9G20G31G 2G23G30G25G32G 4G13
 -25053541.69948 -19511385.74446  20941084.5784   20941079.3674
 -12220167.97347  -9511960.07245  23266216.5864   23266211.5004
  -8116417.60247  -6313714.34944  23715692.8674   23715687.2194
 -28752792.95348 -22383727.68847  20118428.5474   20118421.4224
  -2823071.11346  -2185817.75643  24676118.9614   24676115.3484
  -7206563.81647  -5604019.94144  23548069.7584   23548065.5514
 -14968834.51247 -11644409.00245  22776223.5084   22776220.2624
 -19187532.71148 -14929075.91546  21613017.0084   21613013.2854
 -20435459.08647 -15902073.84546  21407786.7734   21407781.9964
 09  4  4  0 19  0.0000000  0  9G20G31G 2G23G30G25G32G 4G13
 -24994659.27348 -19465503.33246  20952289.4144   20952284.4264
 -12146217.97747  -9454336.72945  23280288.5314   23280283.8754
  -8216225.95747  -6391487.08144  23696700.8364   23696693.7584
 -28784137.36748 -22408151.90447  20112463.9614   20112456.5084
  -2761116.56246  -2137541.46643  24687909.2424   24687904.8714
  -7323800.74647  -5695373.30944  23525759.7664   23525756.0984
 -14888446.95347 -11581769.37145  22791521.2974   22791516.8834
 -19210539.43748 -14947003.23446  21608639.1724   21608634.8794
 -20526001.75447 -15972626.54946  21390557.2344   21390551.9654
 09  4  4  0 19 30.0000000  0  9G20G31G 2G23G30G25G32G 4G13
 -24935355.82448 -19419292.85346  20963574.3984   20963569.0984
 -12071899.11747  -9396425.96145  23294430.7814   23294426.0394
  -8315677.38347  -6468981.66644  23677775.8594   23677769.1094
 -28814985.46548 -22432189.38247  20106593.8284   20106586.5004
  -2698686.29346  -2088894.55942  24699789.7194   24699785.1724
  -7440857.43747  -5786586.24344  23503484.6564   23503481.0204
 -14807845.89147 -11518963.37645  22806858.8364   22806855.6294
 -19232934.33248 -14964453.80246  21604377.2974   21604373.3094
 -20616184.98847 -16042899.17246  21373395.6334   21373390.6954
 09  4  4  0 20  0.0000000  0  9G20G31G 2G23G30G25G32G 4G13
 -24875634.36348 -19372756.66246  20974939.3134   20974934.2234
 -11997215.94147  -9338231.30145  23308643.1564   23308637.9454
  -8414771.00047  -6546197.48344  23658918.1954   23658912.2074
 -28845338.55148 -22455841.13547  20100817.4144   20100810.5084
  -2635784.43046  -2039880.11943  24711758.9534   24711754.6374
  -7557733.03147  -5877658.04344  23481243.4844   23481239.9614
 -14727034.08647 -11455993.18045  22822237.6804   22822233.3054
 -19254718.46548 -14981428.44446  21600232.0864   21600227.9574
 -20706008.71948 -16112891.66446  21356302.4774   21356298.1254
 09  4  4  0 20 30.0000000  0  9G20G31G 2G23G30G25G32G 4G13
 -24815494.38748 -19325894.36446  20986383.5084   20986378.3014
 -11922168.98847  -9279753.19545  23322923.9144   23322918.8484
  -8513501.96547  -6623130.66244  23640130.1564   23640124.2344
 -28875194.41848 -22479105.44847  20095136.3984   20095129.0554
  -2572411.28946  -1990498.47743  24723818.3674   24723813.9384
  -7674423.32447  -5968585.47844  23459038.6094   23459034.7344
 -14646010.81247 -11392858.18645  22837655.6804   22837651.4454
 -19275889.36348 -14997925.26146  21596203.1724   21596199.1174
 -20795469.57448 -16182601.39246  21339278.9614   21339274.2034
 09  4  4  0 21  0.0000000  0  9G20G31G 2G23G30G25G32G 4G13
 -24754939.83248 -19278708.98946  20997906.2504   20997901.2234
 -11846763.71147  -9220995.83945  23337272.7344   23337268.4964
  -8611870.32047  -6699781.30944  23621411.9534   23621405.3874
 -28904555.17248 -22501983.95147  20089549.0634   20089541.8594
  -2508572.22346  -1940753.70342  24735966.4304   24735962.0234
  -7790928.40247  -6059368.58544  23436868.2814   23436863.9694
 -14564779.83647 -11329561.35045  22853113.1024   22853109.3674
 -19296449.19548 -15013945.90146  21592290.7814   21592286.6564
 -20884568.59048 -16252029.17946  21322323.7974   21322319.3204
 09  4  4  0 21 30.0000000  0  9G20G31G 2G23G30G25G32G 4G13
 -24693969.68448 -19231199.79446  21009508.7034   21009502.9844
 -11770999.82847  -9161959.09145  23351690.1804   23351685.7274
  -8709870.77747  -6776145.29044  23602762.5474   23602756.0274
 -28933418.55948 -22524474.90347  20084056.7974   20084049.3014
  -2444267.57446  -1890646.11443  24748203.1174   24748198.8204
  -7907243.68747  -6150003.80644  23414734.0234   23414730.3524
 -14483340.18047 -11266101.89845  22868610.3674   22868607.1414
 -19316395.05148 -15029488.14246  21588495.5164   21588491.3444
 -20973301.98448 -16321172.03746  21305437.8444   21305433.9064
 09  4  4  0 22  0.0000000  0  9G20G31G 2G23G30G25G32G 4G13
 -24632586.98048 -19183369.11846  21021189.2974   21021184.1884
 -11694880.77347  -9102645.54945  23366175.7814   23366170.3204
  -8807501.88747  -6852221.44044  23584184.3444   23584177.4224
 -28961785.14548 -22546578.73247  20078658.9454   20078651.5354
  -2379501.23846  -1840178.93943  24760527.9924   24760524.0354
  -8023367.99647  -6240490.22244  23392635.9694   23392632.0124
 -14401694.19947 -11202481.70045  22884148.1024   22884143.8594
 -19335727.75448 -15044552.58846  21584816.5944   21584812.3404
 -21061669.55548 -16390029.88646  21288622.3984   21288617.8054
 09  4  4  0 22 30.0000000  0  9G20G31G 2G23G30G25G32G 4G13
 -24570793.23048 -19135218.16246  21032948.0164   21032943.3914
 -11618409.89547  -9043057.87545  23380727.2034   23380721.9844
  -8904761.32847  -6928008.01944  23565676.3284   23565669.7624
 -28989655.32848 -22568295.75447  20073355.3054   20073347.8324
  -2314275.93046  -1789354.01843  24772939.7504   24772935.8594
  -8139299.46947  -6330826.34944  23370575.0784   23370571.1254
 -14319843.63747 -11138702.08745  22899723.1024   22899719.2544
 -19354447.39848 -15059139.33246  21581254.0234   21581250.1914
 -21149670.16848 -16458601.76146  21271876.7424   21271872.1094
 09  4  4  0 23  0.0000000  0  9G20G31G 2G23G30G25G32G 4G13
 -24508587.15648 -19086745.90346  21044785.8364   21044780.5434
 -11541586.93047  -8983195.84445  23395346.7894   23395341.3754
  -9001643.99647  -7003500.97144  23547239.7034   23547233.4414
 -29017026.05148 -22589623.59247  20068146.6954   20068139.4654
  -2248592.08646  -1738171.85242  24785439.5314   24785435.7934
  -8255032.99246  -6421008.26844  23348551.9454   23348547.9184
 -14237786.84047 -11074761.77644  22915337.9774   22915334.1564
 -19372550.77748 -15073245.86846  21577809.2894   21577805.5394
 -21237300.00048 -16526884.72846  21255201.4924   21255196.4924
 09  4  4  0 23 30.0000000  0  9G20G31G 2G23G30G25G32G 4G13
 -24445972.84848 -19037955.54546  21056700.4774   21056696.1644
 -11464416.85947  -8923063.33445  23410031.8054   23410026.4534
  -9098149.43447  -7078699.98344  23528875.9384   23528868.9774
 -29043899.67648 -22610564.07847  20063032.7424   20063025.4884
  -2182454.55546  -1686636.13143  24798024.6334   24798021.1564
  -8370568.82046  -6511036.13044  23326565.4694   23326562.0234
 -14155527.60247 -11010663.71745  22930991.4224   22930987.6094
 -19390040.04348 -15086873.87246  21574481.1954   21574477.0274
 -21324559.77748 -16594879.34646  21238595.8674   21238591.7034
 09  4  4  0 24  0.0000000  0  9G20G31G 2G23G30G25G32G 4G13
 -24382952.67247 -18988848.93146  21068693.2344   21068688.3594
 -11386903.26647  -8862663.15145  23424782.2504   23424776.8054
  -9194275.94147  -7153603.74044  23510583.6804   23510577.2854
 -29070277.22348 -22631118.00447  20058013.3134   20058006.5314
  -2115867.25846  -1634749.98043  24810695.3674   24810692.2814
  -8485905.46146  -6600908.76344  23304617.8674   23304614.3634
 -14073068.19947 -10946409.68545  22946682.7814   22946679.3404
 -19406915.60948 -15100023.66746  21571270.0004   21571265.9104
 -21411449.04747 -16662585.24346  21222061.6174   21222057.0904
 09  4  4  0 24 30.0000000  0  9G20G31G 2G23G30G25G32G 4G13
 -24319524.42647 -18939424.33346  21080763.3204   21080758.3204
 -11309044.87947  -8801994.29445  23439597.8914   23439592.4064
  -9290017.25447  -7228207.33244  23492364.0784   23492358.0474
 -29096154.32848 -22651281.98447  20053089.0004   20053081.6214
  -2048828.94946  -1582512.32743  24823452.1724   24823448.6524
  -8601037.23846  -6690621.82844  23282709.4844   23282705.5044
 -13990406.32847 -10881997.87645  22962412.7584   22962409.6094
 -19423174.03148 -15112692.56746  21568176.0234   21568172.0124
 -21497962.73847 -16729998.49046  21205598.3054   21205593.6524
 09  4  4  0 25  0.0000000  0  8G20G31G 2G23G25G32G 4G13
 -24255689.12148 -18889682.55746  21092910.6564   21092905.7274
 -11230843.78547  -8741058.38045  23454478.6564   23454473.7704
  -9385370.23047  -7302508.35144  23474219.4384   23474213.2034
 -29121530.25048 -22671055.42347  20048260.0394   20048252.6994
  -8715960.87546  -6780172.64144  23260839.4694   23260835.9454
 -13907542.46947 -10817428.67745  22978181.6884   22978178.0204
 -19438813.83248 -15124879.42946  21565200.0004   21565195.9844
 -21584098.76648 -16797117.45646  21189207.4454   21189202.3594
 09  4  4  0 25 30.0000000  0  8G20G31G 2G23G25G32G 4G13
 -24191448.09047 -18839624.62746  21105135.4694   21105130.0124
 -11152302.50847  -8679857.39145  23469424.6954   23469419.5824
  -9480331.94147  -7376504.45244  23456148.8524   23456142.4494
 -29146404.96548 -22690438.31947  20043526.7974   20043519.2664
  -8830674.29746  -6869559.69444  23239010.5234   23239006.8754
 -13824477.94547 -10752703.10045  22993989.1174   22993985.2464
 -19453835.26248 -15136584.45146  21562341.2274   21562337.2934
 -21669855.89547 -16863941.16946  21172888.3594   21172883.8674
 09  4  4  0 26  0.0000000  0  8G20G31G 2G23G25G32G 4G13
 -24126797.43447 -18789247.50546  21117437.5394   21117432.9494
 -11073418.05547  -8618389.00545  23484435.7034   23484430.6524
  -9574894.29347  -7450189.36945  23438154.2344   23438148.3634
 -29170772.93048 -22709426.34247  20038889.4384   20038882.2624
  -8945169.67046  -6958776.76444  23217222.8444   23217219.4654
 -13741208.52747 -10687817.87745  23009833.9534   23009830.3984
 -19468232.44548 -15147803.03846  21559601.4144   21559597.5204
 -21755227.27047 -16930464.29246  21156643.4534   21156638.0514
 09  4  4  0 26 30.0000000  0  8G20G31G 2G23G25G32G 4G13
 -24061732.77348 -18738547.79246  21129819.5004   21129814.4104
 -10994186.90247  -8556650.45545  23499513.4534   23499508.4804
  -9669048.75047  -7523556.46045  23420237.6254   23420231.1884
 -29194627.92648 -22728014.64347  20034350.0084   20034342.9804
  -9059438.65646  -7047817.54844  23195478.0164   23195475.0044
 -13657729.48847 -10622769.32944  23025718.8754   23025715.9304
 -19481999.00048 -15158530.21046  21556982.1564   21556978.1764
 -21840205.29747 -16996680.92746  21140472.2584   21140467.1414
 09  4  4  0 27  0.0000000  0  8G20G31G 2G23G25G32G 4G13
 -23996252.27747 -18687524.04446  21142279.7424   21142274.9454
 -10914608.49647  -8494641.35445  23514656.6174   23514651.7814
  -9762789.71947  -7596601.35745  23402398.5634   23402392.8284
 -29217966.69148 -22746200.69247  20029908.8134   20029901.6254
  -9173475.84046  -7136677.64845  23173777.6094   23173773.9694
 -13574039.04747 -10557556.02445  23041645.0784   23041641.7274
 -19495131.82848 -15168763.58946  21554482.8284   21554478.9534
 -21924785.47347 -17062587.52246  21124376.8134   21124372.1804
 09  4  4  0 27 30.0000000  0  8G20G31G 2G23G25G32G 4G13
 -23930365.89548 -18636184.01746  21154817.4304   21154812.8484
 -10834693.73847  -8432370.14145  23529863.7034   23529858.8554
  -9856122.38347  -7669328.06445  23384638.0704   23384632.0354
 -29240797.39148 -22763990.84547  20025564.2344   20025557.0084
  -9287287.09046  -7225361.73544  23152120.3134   23152115.8524
 -13490146.57847 -10492185.31045  23057610.8134   23057606.3674
 -19507638.91048 -15178509.37046  21552102.8834   21552098.9844
 -22008974.66447 -17128189.45646  21108356.1094   21108351.5164
 09  4  4  0 28  0.0000000  0  8G20G31G 2G23G25G32G 4G13
 -23864074.39847 -18584528.32946  21167432.3754   21167427.3364
 -10754444.41447  -8369838.23044  23545134.6884   23545129.8244
  -9949043.60247  -7741734.17145  23366955.8914   23366949.9534
 -29263119.01648 -22781384.32447  20021316.8284   20021309.2304
  -9400869.36346  -7313867.39144  23130506.1644   23130502.0664
 -13406052.72347 -10426657.67444  23073612.6484   23073608.9264
 -19519519.25848 -15187766.77946  21549842.1094   21549838.0784
 -22092770.83248 -17193485.12146  21092409.9844   21092405.4884
 09  4  4  0 28 30.0000000  0  8G20G31G 2G23G25G32G 4G13
 -23797379.27747 -18532558.10646  21180123.9304   21180119.0474
 -10673862.96547  -8307047.51745  23560468.8364   23560464.0984
 -10041550.72347  -7813817.61345  23349352.5704   23349346.4104
 -29284931.50848 -22798381.06847  20017165.5944   20017158.5474
  -9514220.41446  -7402192.83344  23108935.7034   23108932.2034
 -13321758.48447 -10360973.90544  23089652.6954   23089649.0744
 -19530772.81648 -15196535.79646  21547700.7894   21547696.9344
 -22176172.51248 -17258473.41046  21076539.6254   21076535.0274
 09  4  4  0 29  0.0000000  0  8G20G31G 2G23G25G32G 4G13
 -23730285.66448 -18480277.39646  21192891.8054   21192886.9064
 -10592955.71947  -8244002.93045  23575864.3284   23575859.9964
 -10133644.71147  -7885579.14945  23331827.5234   23331821.4494
 -29306238.82048 -22814984.17247  20013111.2034   20013104.0904
  -9627341.74247  -7490339.30344  23087409.4064   23087406.1294
 -13237269.24647 -10295138.15844  23105730.8364   23105727.1604
 -19541403.25848 -15204819.25246  21545677.5004   21545673.6644
 -22259182.07047 -17323156.16446  21060743.5944   21060738.2304
 09  4  4  0 29 30.0000000  0  8G20G31G 2G23G25G32G 4G13
 -23662794.63747 -18427686.99346  21205734.9304   21205729.6604
 -10511724.66047  -8180706.05645  23591322.7114   23591317.8204
 -10225322.46147  -7957016.32745  23314381.5004   23314375.8364
 -29327039.83248 -22831192.74947  20009153.0004   20009145.5944
  -9740230.22746  -7578304.33144  23065927.5784   23065923.7584
 -13152585.32047 -10229150.74744  23121846.3364   23121842.2274
 -19551409.79748 -15212616.55646  21543773.6884   21543769.6724
 -22341797.50048 -17387531.80646  21045021.8984   21045017.2234
 09  4  4  0 30  0.0000000  0  8G20G31G 2G23G25G32G 4G13
 -23594911.03148 -18374790.70246  21218652.9534   21218647.7934
 -10430174.93747  -8117160.83945  23606841.5554   23606836.0044
 -10316584.55547  -8028129.62845  23297015.5474   23297009.2464
 -29347337.71548 -22847009.27847  20005290.4144   20005283.1454
  -9852887.01647  -7666088.79744  23044489.4924   23044485.9144
 -13067711.33247 -10163015.22944  23137996.7424   23137992.9964
 -19560795.67648 -15219930.23246  21541987.3444   21541983.5744
 -22424020.70748 -17451601.80846  21029375.5554   21029370.6884
 09  4  4  0 30 30.0000000  0  8G20G31G 2G23G25G32G 4G13
 -23526635.42247 -18321588.95246  21231645.4454   21231639.8404
 -10348309.03947  -8053369.24744  23622419.4924   23622414.8914
 -10407427.35547  -8098916.18645  23279728.3134   23279722.0904
 -29367131.39148 -22862432.92447  20001523.6954   20001516.1884
  -9965308.75047  -7753690.10544  23023097.1334   23023092.7384
 -12982647.66447 -10096731.90844  23154184.0784   23154179.9614
 -19569559.95348 -15226759.54846  21540319.7114   21540315.5634
 -22505849.28948 -17515364.31646  21013803.7344   21013799.2424
 09  4  4  0 31  0.0000000  0  8G20G31G 2G23G25G32G 4G13
 -23457968.90648 -18268082.59646  21244712.1724   21244706.8054
 -10266128.99247  -7989332.87344  23638058.0864   23638053.1294
 -10497847.92647  -8169373.75945  23262521.7664   23262515.5634
 -29386420.82448 -22877463.65447  19997853.0634   19997845.6644
 -10077492.75447  -7841106.17744  23001748.6564   23001744.6914
 -12897395.11747 -10030301.43744  23170407.0944   23170403.2664
 -19577702.11748 -15233104.10346  21538770.4924   21538766.3014
 -22587281.43048 -17578817.91246  20998308.0704   20998303.3364
 09  4  4  0 31 30.0000000  0  8G20G31G 2G23G25G32G 4G13
 -23388914.04748 -18214273.61746  21257852.9694   21257847.3284
 -10183638.01247  -7925054.22644  23653755.2034   23653750.8754
 -10587844.84047  -8239501.19245  23245396.1414   23245389.5664
 -29405206.88348 -22892102.14047  19994278.1564   19994270.5864
 -10189437.84046  -7928336.08144  22980446.0234   22980442.2584
 -12811956.04747  -9963725.58444  23186665.9384   23186661.5004
 -19585223.35948 -15238964.79846  21537339.0164   21537334.9804
 -22668317.07448 -17641962.55146  20982887.1564   20982882.5164
 09  4  4  0 32  0.0000000  0  8G20G31G 2G23G25G32G 4G13
 -23319472.09848 -18160163.03146  21271067.1954   21271062.3554
 -10100838.32047  -7860535.01244  23669511.9774   23669506.7384
 -10677414.84847  -8309295.96845  23228351.2584   23228345.3524
 -29423489.09448 -22906348.01247  19990799.4064   19990791.9804
 -10301141.37947  -8015377.72644  22959190.0004   22959185.7234
 -12726331.23847  -9897005.03044  23202958.7734   23202955.8914
 -19592123.12948 -15244341.25046  21536026.0314   21536022.3484
 -22748954.37948 -17704796.80546  20967542.5634   20967537.5044
 09  4  4  0 32 30.0000000  0  8G20G31G 2G23G25G32G 4G13
 -23249645.34448 -18105752.59146  21284354.7894   21284349.6054
 -10017733.27347  -7795777.84844  23685326.2034   23685321.3134
 -10766556.07847  -8378756.63845  23211387.9304   23211381.9654
 -29441268.14148 -22920201.81047  19987416.1884   19987408.8834
 -10412601.57847  -8102229.81044  22937979.2664   22937975.3594
 -12640522.69547  -9830141.27744  23219288.1024   23219284.7034
 -19598402.35948 -15249234.16546  21534831.3054   21534827.0864
 -22829192.69948 -17767320.15446  20952273.6174   20952268.3874
 09  4  4  0 33  0.0000000  0  9G20G31G 2G23G 7G25G32G 4G13
 -23179439.00848 -18051046.37346  21297714.8054   21297709.8794
  -9934328.84447  -7730787.42444  23701198.1414   23701193.0704
 -10855269.40247  -8447883.87745  23194506.5944   23194500.5004
 -29458547.58648 -22933666.31547  19984127.8364   19984120.7424
   -233873.16456   -173950.18653  25086857.6414   25086853.9574
 -10523819.86347  -8188893.34644  22916815.4774   22916811.1454
 -12554535.24247  -9763138.10644  23235650.6884   23235647.5164
 -19604064.65648 -15253646.35646  21533753.7974   21533749.6094
 -22909034.28148 -17829534.35346  20937080.5164   20937075.1914
 09  4  4  0 33 30.0000000  0  9G20G31G 2G23G 7G25G32G 4G13
 -23108862.07848 -17996051.39246  21311144.8134   21311139.6174
  -9850635.23847  -7665571.64844  23717123.7504   23717119.4304
 -10943559.85247  -8516681.58644  23177705.2664   23177699.2894
 -29475334.83248 -22946747.28247  19980933.4224   19980926.0124
   -361219.69946   -273181.18743  25062624.5164   25062621.0864
 -10634801.55147  -8275372.55344  22895696.0634   22895692.3094
 -12468377.71147  -9696002.43044  23252046.1564   23252042.7114
 -19609117.67648 -15257583.77646  21532792.3674   21532787.9144
 -22988485.21548 -17891444.15246  20921961.2114   20921956.2814
 09  4  4  0 34  0.0000000  0  9G20G31G 2G23G 7G25G32G 4G13
 -23037918.00448 -17940770.30746  21324645.2114   21324639.8984
  -9766657.07847  -7600134.15244  23733104.3204   23733099.9184
 -11031427.20347  -8585149.62844  23160984.2734   23160978.1054
 -29491632.01248 -22959446.38047  19977832.0784   19977824.7814
   -488565.23046   -372411.46043  25038391.4774   25038387.7774
 -10745546.25847  -8361667.06944  22874622.3594   22874618.1724
 -12382053.45747  -9628736.82844  23268473.3524   23268469.9654
 -19613563.50048 -15261048.05846  21531946.1954   21531942.0204
 -23067546.30948 -17953050.18446  20906916.5864   20906911.1214
 09  4  4  0 34 30.0000000  0  9G20G31G 2G23G 7G25G32G 4G13
 -21391189.98448 -16657605.63846  21638006.8204   21638001.8794
  -8106978.26247  -6306877.96844  24048930.6414   24048926.1884
  -9543444.60947  -7425682.65244  23444138.0164   23444132.3524
 -27932017.62148 -21744162.43947  20274617.0474   20274609.7814
    959517.66446    755964.83743  25313952.0084   25313949.0784
  -9280627.00847  -7220171.49645  23153387.3284   23153382.9614
 -10720145.45347  -8333743.62244  23584723.6954   23584720.5864
 -18041980.86748 -14036438.21346  21831008.1414   21831004.2774
 -21570792.44148 -16786748.44646  21191739.3594   21191734.1684
 09  4  4  0 35  0.0000000  0  9G20G31G 2G23G 7G25G32G 4G13
 -21319511.91848 -16601752.60946  21651647.3054   21651641.9804
  -8022433.05547  -6240998.58644  24065018.9694   24065014.9574
  -9630452.24647  -7493480.77344  23427581.5394   23427575.0004
 -27947329.68448 -21756093.91447  20271703.0554   20271695.7894
    832185.66046    656745.08443  25289721.3834   25289718.6844
  -9390885.84447  -7306087.42945  23132405.3594   23132401.8444
 -10633486.22347  -8266216.97344  23601214.5944   23601211.0394
 -18045207.54348 -14038952.50646  21830394.3594   21830390.3984
 -21649064.60548 -16847739.72146  21176844.3204   21176839.3554
 09  4  4  0 35 30.0000000  0  9G20G31G 2G23G 7G25G32G 4G13
 -21247464.98448 -16545612.16446  21665357.1254   21665352.0784
  -7937603.62947  -6174897.77144  24081161.8914   24081157.2424
  -9717021.75447  -7560937.50144  23411108.0554   23411101.3634
 -27962144.59048 -21767638.00047  20268883.9614   20268876.7704
    704868.66846    557536.97343  25265495.0784   25265491.1994
  -9500894.01247  -7391808.03745  23111471.7194   23111467.8984
 -10546657.03547  -8198557.95244  23617737.6334   23617734.1644
 -18047820.54748 -14040988.62346  21829897.2504   21829892.8714
 -21726935.93048 -16908418.66646  21162025.9144   21162021.0664
 09  4  4  0 36  0.0000000  0  9G20G31G 2G23G 7G25G32G 4G13
 -21175049.46148 -16489184.50646  21679137.1174   21679132.2934
  -7852491.62147  -6108576.76145  24097358.4844   24097353.9104
  -9803149.61347  -7628050.10244  23394718.1644   23394711.8794
 -27976461.75448 -21778794.22747  20266159.2894   20266152.4924
    577569.52046    458342.99643  25241270.1804   25241266.7814
  -9610648.17647  -7477330.72145  23090586.2274   23090582.1564
 -10459658.12547  -8130766.63744  23634293.2504   23634289.5354
 -18049819.05948 -14042545.90646  21829516.8984   21829512.9844
 -21804404.21948 -16968783.55646  21147284.2344   21147279.4024
 09  4  4  0 36 30.0000000  0  9G20G31G 2G23G 7G25G32G 4G13
 -21102267.89148 -16432471.61446  21692987.2194   21692982.0354
  -7767100.27347  -6042038.07445  24113607.9064   24113603.6024
  -9888834.12547  -7694817.24444  23378413.0394   23378406.1954
 -27990281.96948 -21789563.22147  20263529.2974   20263522.3954
    450289.33646    359163.68143  25217049.7664   25217046.0514
  -9720146.93447  -7562654.38745  23069748.9694   23069745.0554
 -10372491.77747  -8062844.84544  23650880.3284   23650876.8164
 -18051204.35548 -14043625.36846  21829253.1414   21829248.9694
 -21881468.75448 -17028833.83246  21132619.2034   21132614.1914
 09  4  4  0 37  0.0000000  0  9G20G31G 2G23G 7G25G32G 4G13
 -21029121.28148 -16375474.28746  21706906.4384   21706901.6764
  -7681431.55547  -5975283.23444  24129910.3984   24129905.3164
  -9974071.84447  -7761236.22244  23362192.9454   23362186.3244
 -28003604.50448 -21799944.42147  20260994.3674   20260987.1454
    323031.64846    260001.94743  25192833.4774   25192830.0474
  -9829387.16847  -7647776.60145  23048961.4774   23048957.2074
 -10285158.17647  -7994792.76344  23667499.8674   23667495.7774
 -18051975.57048 -14044226.32446  21829106.4304   21829102.3324
 -21958127.73448 -17088568.07546  21118031.7814   21118026.6214
 09  4  4  0 37 30.0000000  0 10G20G16G31G 2G23G 7G25G32G 4G13
 -20955609.95748 -16318192.76246  21720895.5634   21720890.1334
   1431774.45756   1132539.89353  24194844.4384   24194839.0514
  -7595487.03147  -5908313.51344  24146265.0634   24146259.9924
 -10058859.19547  -7827304.27644  23346058.3284   23346051.3484
 -28016428.26248 -21809936.96347  20258554.0234   20258546.4734
    195799.64146    160860.27043  25168621.6724   25168617.9064
  -9938365.54747  -7732694.78945  23028223.3984   23028219.7934
 -10197657.80547  -7926610.67644  23684150.9844   23684147.0004
 -18052132.16048 -14044348.34946  21829076.8674   21829072.7424
 -22034378.47348 -17147984.22146  21103521.7194   21103516.7854
 09  4  4  0 38  0.0000000  0 10G20G16G31G 2G23G 7G25G32G 4G13
 -20881736.38748 -16260628.96046  21734953.0314   21734947.9024
   1340542.44946   1061450.07543  24177483.9144   24177478.2304
  -7509269.69547  -5841131.20244  24162671.4924   24162666.6334
 -10143194.73047  -7893020.27144  23330009.8134   23330003.2734
 -28028754.13748 -21819541.53747  20256208.5634   20256201.3244
     68594.95746     61739.85743  25144415.2424   25144411.7114
 -10047080.61347  -7817407.77445  23007535.5004   23007531.5984
 -10109992.41847  -7858300.05644  23700832.5634   23700828.7154
 -18051674.88348 -14043992.03746  21829163.5944   21829159.5784
 -22110220.69948 -17207082.05446  21089089.4144   21089084.5554
 09  4  4  0 38 30.0000000  0 10G20G16G31G 2G23G 7G25G32G 4G13
 -20807502.57848 -16202784.45546  21749079.2194   21749074.1764
   1249648.31647    990623.51544  24160186.9454   24160181.8244
  -7422782.44947  -5773738.57744  24179129.8364   24179124.8094
 -10227075.98447  -7958382.30144  23314047.9774   23314041.6454
 -28040582.55548 -21828758.48547  20253957.5944   20253950.2774
    -58581.12546    -37358.26644  25120214.1804   25120210.4614
 -10155530.49247  -7901914.12445  22986898.1484   22986894.3284
 -10022163.79347  -7789862.21044  23717545.7504   23717542.2974
 -18050604.72348 -14043158.15646  21829367.4694   21829363.1764
 -22185653.49648 -17265860.84546  21074734.8834   21074730.1254
 09  4  4  0 39  0.0000000  0 10G20G16G31G 2G23G 7G25G32G 4G13
 -20732910.98048 -16144661.14946  21763273.8054   21763268.4924
   1159094.26646    920061.98643  24142955.2814   24142950.2974
  -7336028.82847  -5706138.36544  24195637.8364   24195633.5944
 -10310501.08647  -8023388.84945  23298172.3054   23298166.0634
 -28051914.42648 -21837588.51547  20251801.2344   20251793.7274
   -185727.12546   -136432.97543  25096019.2504   25096014.9494
 -10263713.72747  -7986212.68345  22966311.4534   22966307.5204
  -9934174.02047  -7721298.82844  23734289.9614   23734286.2934
 -18048922.87148 -14041847.62846  21829687.4694   21829683.5004
 -22260676.49648 -17324320.31846  21060458.6334   21060453.6254
 09  4  4  0 39 30.0000000  0 10G20G16G31G 2G23G 7G25G32G 4G13
 -20657958.85548 -16086256.91146  21777536.3524   21777531.4064
   1068887.41446    849770.96443  24125789.4064   24125784.1644
  -7249006.57846  -5638328.84544  24212197.6334   24212192.6174
 -10393463.31647  -8088034.74045  23282385.4304   23282379.1024
 -28062745.54348 -21846028.35247  20249740.3284   20249732.9614
   -312835.82046   -235478.58043  25071831.1484   25071827.5554
 -10371623.54747  -8070298.18545  22945777.0704   22945772.8984
  -9846019.84047  -7652607.29644  23751065.8134   23751061.4064
 -18046625.02748 -14040057.11046  21830124.6564   21830120.7894
 -22335283.65648 -17382455.74746  21046261.2274   21046256.4614
 09  4  4  0 40  0.0000000  0 10G20G16G31G 2G23G 7G25G32G 4G13
 -20582649.36748 -16027574.21846  21791867.5234   21791862.3754
    979029.30147    779751.63544  24108689.1334   24108684.9964
  -7161719.97747  -5570313.33044  24228808.9534   24228802.8714
 -10475961.68047  -8152319.17845  23266686.3054   23266680.1804
 -28073077.55148 -21854079.26647  20247774.0944   20247766.8834
   -439906.73046   -334494.85143  25047650.1884   25047646.2424
 -10479259.47347  -8154170.29145  22925294.7114   22925290.5394
  -9757704.17247  -7583789.93344  23767869.8134   23767867.4574
 -18043713.22748 -14037788.19346  21830678.6644   21830674.5664
 -22409475.41848 -17440267.49046  21032143.1484   21032138.3404
 09  4  4  0 40 30.0000000  0 10G20G16G31G 2G23G 7G25G32G 4G13
 -20506985.28148 -15968615.20145  21806265.9844   21806260.5314
    889521.66047    710005.49043  24091656.8364   24091652.4884
  -7074172.76247  -5502094.74544  24245467.5314   24245462.8164
 -10557994.91847  -8216241.16945  23251075.9224   23251069.4264
 -28082911.75448 -21861742.27947  20245902.6414   20245895.3754
   -566939.09446   -433481.01343  25023476.7974   25023472.8634
 -10586620.45747  -8237828.16245  22904864.3834   22904859.9774
  -9669229.62947  -7514848.78444  23784706.5004   23784703.9414
 -18040189.34048 -14035042.30946  21831349.5784   21831345.4454
 -22483251.92648 -17497755.65746  21018103.5784   21018099.1054
 09  4  4  0 41  0.0000000  0 10G20G16G31G 2G23G 7G25G32G 4G13
 -20430967.99248 -15909380.97846  21820731.6724   21820726.6094
    800368.34046    640535.34943  24074691.7034   24074686.5554
  -6986366.83247  -5433674.58844  24262176.6804   24262171.9384
 -10639560.36347  -8279798.63745  23235554.6174   23235548.0704
 -28092248.09848 -21869017.35847  20244125.8284   20244118.7814
   -693930.19146   -532435.06843  24999310.4304   24999306.7894
 -10693703.65647  -8321269.56245  22884486.9534   22884482.6054
  -9580596.80947  -7445784.32044  23801574.0234   23801570.0274
 -18036053.00848 -14031819.20646  21832136.6564   21832132.4264
 -22556611.38748 -17554918.86046  21004144.0004   21004139.0594
 09  4  4  0 41 30.0000000  0 10G20G16G31G 2G23G 7G25G32G 4G13
 -20354595.44548 -15849869.91946  21835264.7974   21835259.5864
    711575.82447    571346.49844  24057794.9694   24057790.3524
  -6898300.87947  -5365051.76944  24278935.0084   24278930.1844
 -10720651.34047  -8342986.39245  23220123.5084   23220117.3484
 -28101082.71948 -21875901.47247  20242445.0394   20242437.8014
   -820873.88746   -631352.14743  24975154.5554   24975150.6724
 -10800502.99247  -8404489.78645  22864163.5084   22864159.8204
  -9491803.24247  -7376594.55644  23818470.0864   23818466.9184
 -18031301.03948 -14028116.38446  21833040.9774   21833037.0394
 -22629548.57848 -17611753.01546  20990264.5554   20990259.5744
 09  4  4  0 42  0.0000000  0 10G20G16G31G 2G23G 7G25G32G 4G13
 -20277869.09447 -15790083.17346  21849865.1644   21849860.6884
    623146.59047    502440.67844  24040967.3914   24040962.7424
  -6809977.50047  -5296228.38944  24295742.1254   24295737.3634
 -10801265.37947  -8405802.51445  23204783.0634   23204776.7664
 -28109415.93048 -21882394.88547  20240859.1414   20240852.0044
   -947767.84046   -730230.47343  24951007.1724   24951002.7304
 -10907016.38747  -8487487.19445  22843894.7194   22843890.7624
  -9402850.30947  -7307280.65044  23835396.8204   23835393.5664
 -18025934.11348 -14023934.38346  21834062.0704   21834057.8674
 -22702062.49248 -17668257.34846  20976465.4924   20976460.6764
 09  4  4  0 42 30.0000000  0 10G20G16G31G 2G23G 7G25G32G 4G13
 -20200794.30548 -15730024.91046  21864532.1174   21864527.2384
    535080.55547    433817.82144  24024209.1094   24024204.1994
  -6721402.70347  -5227209.09044  24312597.8674   24312592.6994
 -10881403.67247  -8468247.92045  23189533.1644   23189526.9534
 -28117251.23048 -21888500.31347  20239367.9774   20239360.8134
  -1074613.35246   -829071.15743  24926869.5164   24926865.4614
 -11013245.22347  -8570262.89245  22823680.3914   22823676.1254
  -9313742.77047  -7237846.25744  23852353.4844   23852350.2974
 -18019955.98848 -14019276.11446  21835199.6254   21835195.6764
 -22774155.25048 -17724433.50546  20962746.6484   20962741.7194
 09  4  4  0 43  0.0000000  0 10G20G16G31G 2G23G 7G25G32G 4G13
 -20123369.98447 -15669694.29246  21879265.1254   21879260.6604
    447383.03547    365482.16544  24007521.0314   24007515.5204
  -6632576.51247  -5157993.92244  24329500.5314   24329495.8364
 -10961061.23847  -8530318.74245  23174374.7504   23174368.8674
 -28124586.43748 -21894216.06347  20237972.2814   20237964.9384
  -1201405.64846   -927870.21043  24902741.8134   24902737.8324
 -11119184.55147  -8652812.96045  22803520.4384   22803516.5044
  -9224479.24247  -7168290.31944  23869340.3054   23869337.1054
 -18013364.67648 -14014140.04546  21836453.9614   21836449.9694
 -22845823.14548 -17780278.60446  20949109.0474   20949103.9414
 09  4  4  0 43 30.0000000  0 10G20G16G31G 2G23G 7G25G32G 4G13
 -20045598.99247 -15609093.53846  21894065.3674   21894059.9454
    360055.82847    297435.05144  23990902.5474   23990897.6294
  -6543502.39847  -5088585.56944  24346451.0164   24346446.4264
 -11040236.84447  -8592013.98545  23159308.1254   23159302.0554
 -28131423.04348 -21899543.28247  20236671.3134   20236663.7664
  -1328143.47746  -1026626.90643  24878623.3444   24878620.1174
 -11224833.37547  -8735136.68745  22783416.1884   22783411.7894
  -9135062.34447  -7098614.87544  23886355.8524   23886352.4614
 -18006162.07048 -14008527.61946  21837824.4924   21837820.6844
 -22917066.37148 -17835792.78146  20935551.5004   20935546.8834
 09  4  4  0 44  0.0000000  0 10G20G16G31G 2G23G 7G25G32G 4G13
 -19967483.74247 -15548224.53345  21908929.9304   21908924.9024
    273101.68047    229678.56544  23974355.8134   23974350.7304
  -6454183.44147  -5018986.40544  24363447.3984   24363443.1454
 -11118928.59847  -8653332.22345  23144333.3984   23144327.5274
 -28137761.37148 -21904482.24147  20235465.1954   20235458.0354
  -1454824.93446  -1125339.66443  24854516.6254   24854514.0904
 -11330190.01647  -8817232.73845  22763367.6804   22763363.2774
  -9045493.68447  -7028821.18744  23903400.9614   23903397.0904
 -17998348.98048 -14002439.52746  21839311.5164   21839307.0664
 -22987883.92248 -17890975.27546  20922075.2274   20922070.7074
 09  4  4  0 44 30.0000000  0 10G20G16G31G 2G23G 7G25G32G 4G13
 -19889025.39847 -15487088.19145  21923860.0084   21923854.9384
    186523.31647    162214.99343  23957880.2424   23957875.4224
  -6364621.87947  -4949198.23844  24380491.5474   24380485.7894
 -11197133.68447  -8714271.22945  23129451.7664   23129445.8554
 -28143601.51648 -21909032.99947  20234353.6564   20234346.4534
  -1581447.96546  -1224006.89144  24830421.8834   24830418.1524
 -11435251.93047  -8899099.10745  22743374.9454   22743370.4654
  -8955774.31647  -6958910.01944  23920473.2114   23920469.8754
 -17989925.88748 -13995876.09146  21840914.4144   21840910.2424
 -23058274.29748 -17945824.89746  20908680.5944   20908675.8874
 09  4  4  0 45  0.0000000  0 10G20G16G31G 2G23G 7G25G32G 4G13
 -19810228.03947 -15425687.66446  21938854.4224   21938849.7114
    100322.06647     95045.23044  23941477.3754   23941471.9494
  -6274822.28947  -4879224.54344  24397579.4064   24397574.4964
 -11274851.71147  -8774830.71145  23114662.4694   23114656.1524
 -28148945.86748 -21913197.42647  20233336.7664   20233329.7114
  -1708011.95346  -1322628.12444  24806337.7894   24806333.5124
 -11540018.96547  -8980735.72545  22723438.5164   22723434.4844
  -8865907.56247  -6888884.05244  23937573.9534   23937571.2814
 -17980895.32848 -13988839.30246  21842632.8984   21842628.7154
 -23128238.39848 -18000342.37446  20895366.9224   20895362.4344
 09  4  4  0 45 30.0000000  0 10G20G16G31G 2G23G 7G25G32G 4G13
 -19731090.49647 -15364022.06645  21953913.7974   21953908.9574
     14502.93047     28173.20644  23925146.2034   23925141.0904
  -6184784.41447  -4809065.21144  24414713.7584   24414708.6254
 -11352077.66847  -8835006.76445  23099966.6094   23099960.7544
 -28153792.10248 -21916973.71747  20232414.6484   20232407.0704
  -1834512.16046  -1421199.63344  24782264.9224   24782261.2074
 -11644486.34447  -9062138.83045  22703558.7344   22703554.2814
  -8775892.19547  -6818742.26144  23954705.5784   23954700.4614
 -17971255.54748 -13981327.80346  21844467.1414   21844463.4844
 -23197772.59448 -18054524.84346  20882135.1254   20882130.1764
 09  4  4  0 46  0.0000000  0 10G20G16G31G 2G23G 7G25G32G 4G13
 -19651614.39147 -15302092.65445  21969037.3054   21969032.9614
    -70930.92647    -38398.60544  23908888.6484   23908883.9614
  -6094510.60947  -4738721.99244  24431891.3204   24431886.6914
 -11428809.04747  -8894797.42845  23085365.0394   23085359.0274
 -28158140.12148 -21920361.77647  20231587.4224   20231579.8984
  -1960946.18446  -1519719.57044  24758205.6334   24758202.0234
 -11748651.73847  -9143306.62245  22683736.6724   22683732.3554
